[
  {"name": "KEM Hospital", "type": "hospital", "latitude": 18.9942, "longitude": 72.8411, "ward": "Ward 2 - Byculla", "capacity": 1800, "status": "operational"},
  {"name": "Sion Hospital", "type": "hospital", "latitude": 19.0397, "longitude": 72.8627, "ward": "Ward 3 - Dadar", "capacity": 1200, "status": "operational"},
  {"name": "Lilavati Hospital", "type": "hospital", "latitude": 19.0509, "longitude": 72.8283, "ward": "Ward 9 - Bandra", "capacity": 600, "status": "operational"},
  {"name": "Holy Family Hospital", "type": "hospital", "latitude": 19.0445, "longitude": 72.8396, "ward": "Ward 9 - Bandra", "capacity": 400, "status": "operational"},
  {"name": "Cooper Hospital", "type": "hospital", "latitude": 19.0989, "longitude": 72.8462, "ward": "Ward 5 - Andheri", "capacity": 900, "status": "operational"},
  {"name": "Hiranandani Hospital", "type": "hospital", "latitude": 19.1142, "longitude": 72.8856, "ward": "Ward 5 - Andheri", "capacity": 500, "status": "operational"},
  {"name": "Bhagwati Hospital", "type": "hospital", "latitude": 19.2288, "longitude": 72.8568, "ward": "Ward 6 - Borivali", "capacity": 700, "status": "operational"},
  {"name": "Shelter A - Colaba", "type": "shelter", "latitude": 18.9167, "longitude": 72.8203, "ward": "Ward 1 - Colaba", "capacity": 500, "status": "operational"},
  {"name": "Shelter B - Byculla", "type": "shelter", "latitude": 18.9799, "longitude": 72.8325, "ward": "Ward 2 - Byculla", "capacity": 600, "status": "operational"},
  {"name": "Shelter C - Andheri", "type": "shelter", "latitude": 19.1198, "longitude": 72.8464, "ward": "Ward 5 - Andheri", "capacity": 800, "status": "operational"},
  {"name": "Shelter D - Borivali", "type": "shelter", "latitude": 19.2310, "longitude": 72.8580, "ward": "Ward 6 - Borivali", "capacity": 450, "status": "operational"},
  {"name": "Shelter E - Kandivali", "type": "shelter", "latitude": 19.2050, "longitude": 72.8530, "ward": "Ward 12 - Kandivali", "capacity": 700, "status": "operational"},
  {"name": "Pump Station Alpha", "type": "pump_station", "latitude": 19.0180, "longitude": 72.8480, "ward": "Ward 3 - Dadar", "capacity": 5000, "status": "operational"},
  {"name": "Pump Station Beta", "type": "pump_station", "latitude": 19.0730, "longitude": 72.8850, "ward": "Ward 4 - Kurla", "capacity": 4500, "status": "operational"},
  {"name": "Pump Station Gamma", "type": "pump_station", "latitude": 19.1140, "longitude": 72.8700, "ward": "Ward 5 - Andheri", "capacity": 6000, "status": "operational"},
  {"name": "Pump Station Delta", "type": "pump_station", "latitude": 19.2050, "longitude": 72.8530, "ward": "Ward 12 - Kandivali", "capacity": 3500, "status": "maintenance"},
  {"name": "Fire Station - Colaba", "type": "fire_station", "latitude": 18.9100, "longitude": 72.8120, "ward": "Ward 1 - Colaba", "capacity": 30, "status": "operational"},
  {"name": "Fire Station - Dadar", "type": "fire_station", "latitude": 19.0200, "longitude": 72.8500, "ward": "Ward 3 - Dadar", "capacity": 40, "status": "operational"},
  {"name": "Fire Station - Andheri", "type": "fire_station", "latitude": 19.1190, "longitude": 72.8470, "ward": "Ward 5 - Andheri", "capacity": 35, "status": "operational"},
  {"name": "Mumbai University School", "type": "school", "latitude": 19.0760, "longitude": 72.8777, "ward": "Ward 4 - Kurla", "capacity": 1200, "status": "operational"},
  {"name": "DAV Public School", "type": "school", "latitude": 19.1100, "longitude": 72.8650, "ward": "Ward 5 - Andheri", "capacity": 1500, "status": "operational"},
  {"name": "Drainage Hub North", "type": "drainage", "latitude": 19.1700, "longitude": 72.9500, "ward": "Ward 7 - Mulund", "capacity": 8000, "status": "operational"},
  {"name": "Drainage Hub South", "type": "drainage", "latitude": 18.9500, "longitude": 72.8300, "ward": "Ward 1 - Colaba", "capacity": 7500, "status": "operational"}
]
